City_ID,City,Lat,Lng,Max Temp,Humidity,Cloudiness,Wind Speed,Country,Date
0,port victoria,0.0939,33.9756,21.45,80,36,3.26,KE,1717279530
1,coquimbo,-29.9533,-71.3436,15.55,56,0,5.66,CL,1717279156
2,edinburgh of the seven seas,-37.0676,-12.3116,14.76,91,98,3.82,SH,1717279530
3,weno,7.4515,151.8468,27.83,80,100,5.71,FM,1717279530
4,hawaiian paradise park,19.5933,-154.9731,26.73,81,100,5.14,US,1717279530
5,west island,-12.1568,96.8225,26.99,83,100,6.17,CC,1717279530
6,longyearbyen,78.2186,15.6401,2.91,87,75,2.06,SJ,1717279377
7,nacozari de garcia,30.3742,-109.6908,34.39,5,18,7.83,MX,1717279531
8,pathein,16.7833,94.7333,26.48,86,100,2.07,MM,1717279531
9,crucecita,-28.95,-58.9833,19.01,82,100,3.04,AR,1717279531
10,gadzhiyevo,69.2551,33.3362,5.34,93,97,4.58,RU,1717279531
11,huanggang,23.677,116.9996,25.94,99,100,1.94,CN,1717279531
12,ribeira grande,38.5167,-28.7,19.32,87,85,3.58,PT,1717279531
13,pitkyaranta,61.5734,31.4792,13.62,98,63,2.62,RU,1717279532
14,kifri,34.6959,44.9661,28.64,21,0,3.06,IQ,1717279532
15,adamstown,-25.066,-130.1015,21.15,71,36,6.03,PN,1717279532
16,olyokminsk,60.3736,120.4264,17.3,74,81,1.3,RU,1717279532
17,sai buri,6.7013,101.6168,27.2,87,100,1.92,TH,1717279532
18,college,64.8569,-147.8028,22.97,26,75,2.57,US,1717279532
19,enewetak,11.3474,162.3373,28.01,82,89,6.27,MH,1717279532
20,waitangi,-43.9535,-176.5597,9.9,72,44,6.26,NZ,1717279532
21,zhengjiatun,43.5064,123.5064,14.37,71,100,1.83,CN,1717279533
22,olonkinbyen,70.9221,-8.7187,1.37,95,100,3.95,SJ,1717279533
23,la passe,45.5549,-0.8967,15.13,90,19,5.43,FR,1717279533
24,yellowknife,62.456,-114.3525,11.9,60,75,5.14,CA,1717279533
25,krasnyy chikoy,50.3643,108.7512,9.42,83,4,0.94,RU,1717279533
26,bodaybo,57.8506,114.1933,14.9,87,74,0.8,RU,1717279533
27,puerto ayora,-0.7393,-90.3518,23.98,92,54,1.34,EC,1717279533
28,polyarnyy,69.1989,33.4478,5.13,93,99,4.6,RU,1717279533
29,mehekar,20.15,76.5667,31.36,43,76,7.55,IN,1717279533
30,blackmans bay,-43.0167,147.3167,6.52,85,1,0.45,AU,1717279534
31,bredasdorp,-34.5322,20.0403,13.21,93,96,8.67,ZA,1717279534
32,cienfuegos,22.1461,-80.4356,34.08,46,29,4.63,CU,1717279534
33,port-aux-francais,-49.35,70.2167,2.02,71,11,20.73,TF,1717279534
34,iqaluit,63.7506,-68.5145,0.85,74,75,6.17,CA,1717279534
35,kismayo,-0.3582,42.5454,26.27,87,38,5.7,SO,1717279534
36,jamestown,42.097,-79.2353,24.8,25,0,3.6,US,1717279518
37,antonio enes,-16.2325,39.9086,23.7,87,1,2.36,MZ,1717279534
38,ushuaia,-54.8,-68.3,1.81,75,40,7.72,AR,1717279441
39,shalkar,47.8288,59.6258,22.47,44,72,3.97,KZ,1717279535
40,tahoua,14.8888,5.2692,32.99,46,20,3.09,NE,1717279535
41,sitka,57.0531,-135.33,10.94,58,100,5.14,US,1717279535
42,whitehorse,60.7161,-135.0538,16.01,31,75,4.63,CA,1717279535
43,ambatondrazaka,-17.8333,48.4167,17.05,95,87,1.16,MG,1717279535
44,albany,42.6001,-73.9662,27.11,35,11,3.38,US,1717278735
45,tambopata,-12.7333,-69.1833,28.94,54,20,2.06,PE,1717279247
46,huinan,42.6225,126.2614,11.18,94,100,0.28,CN,1717279535
47,ormara,25.2088,64.6357,28.15,84,5,0.48,PK,1717279251
48,manggar,-2.8833,108.2667,26.85,86,100,2.04,ID,1717279536
49,harar,9.3094,42.1258,16.86,63,77,3.7,ET,1717279536
50,hithadhoo,-0.6,73.0833,29.33,70,18,8.0,MV,1717279536
51,tsiombe,-25.3,45.4833,19.2,55,0,0.2,MG,1717279536
52,bac lieu,9.285,105.7244,27.9,76,91,1.95,VN,1717279536
53,nushki,29.5542,66.0215,27.18,9,0,1.85,PK,1717279536
54,georgetown,5.4112,100.3354,27.96,81,20,1.54,MY,1717279318
55,arucas,28.1198,-15.5233,19.9,81,32,5.33,ES,1717279537
56,flying fish cove,-10.4217,105.6791,25.82,94,75,3.6,CX,1717279537
57,carnarvon,-24.8667,113.6333,23.15,78,100,10.95,AU,1717279537
58,hobyo,5.3505,48.5268,26.66,79,11,11.53,SO,1717279537
59,anadyr,64.75,177.4833,5.28,70,0,3.0,RU,1717279537
60,acapulco de juarez,16.8634,-99.8901,30.9,74,75,7.2,MX,1717279362
61,kaa-khem,51.6833,94.7333,12.45,65,75,1.06,RU,1717279537
62,bubaque,11.2833,-15.8333,26.36,76,95,6.17,GW,1717279537
63,nabire,-3.3667,135.4833,24.98,91,89,1.09,ID,1717279537
64,praia,14.9215,-23.5087,23.3,73,40,5.14,CV,1717279538
65,guerrero negro,27.9769,-114.0611,19.56,61,91,9.45,MX,1717279538
66,yeppoon,-23.1333,150.7333,16.88,80,100,2.92,AU,1717279538
67,ilulissat,69.2167,-51.1,-1.21,72,85,0.77,GL,1717279538
68,pekan,3.4836,103.3996,25.06,92,100,2.39,MY,1717279538
69,grytviken,-54.2811,-36.5092,-3.67,82,18,4.88,GS,1717279538
70,utrik,11.2278,169.8474,28.21,83,20,7.48,MH,1717279538
71,talnakh,69.4865,88.3972,-2.11,96,100,3.47,RU,1717279538
72,saint-pierre,-21.3393,55.4781,20.82,68,0,2.57,RE,1717279538
73,oranjemund,-28.55,16.4333,10.55,87,0,1.22,NA,1717279539
74,tazovsky,67.4667,78.7,-1.94,98,100,2.95,RU,1717279539
75,trinidad,-14.8333,-64.9,27.99,61,20,0.0,BO,1717279539
76,lebu,-37.6167,-73.65,10.1,65,60,2.94,CL,1717279348
77,salalah,17.0151,54.0924,30.05,79,40,2.06,OM,1717279539
78,hermanus,-34.4187,19.2345,13.78,88,74,5.41,ZA,1717279539
79,tiksi,71.6872,128.8694,1.96,86,45,4.63,RU,1717279539
80,papatowai,-46.5619,169.4708,9.11,75,58,6.01,NZ,1717279539
81,kwekwe,-18.9281,29.8149,14.23,50,1,0.95,ZW,1717279540
82,laojunmiao,39.8333,97.7333,12.33,32,28,1.92,CN,1717279540
83,montepuez,-13.1256,38.9997,18.08,97,11,1.78,MZ,1717279540
84,puerto natales,-51.7236,-72.4875,1.25,100,0,2.06,CL,1717279540
85,bridgewater,44.3835,-64.5155,14.26,60,73,2.57,CA,1717279540
86,ust-nera,64.5667,143.2,9.89,37,28,0.54,RU,1717279540
87,newcastle,-32.9272,151.7765,12.1,92,100,6.69,AU,1717279266
88,kalaleh,37.3807,55.4916,25.2,65,75,2.06,IR,1717279540
89,dampit,-8.2116,112.7493,22.51,100,86,1.45,ID,1717279540
90,invercargill,-46.4,168.35,9.45,76,71,3.13,NZ,1717279541
91,nar'yan-mar,67.6713,53.087,-3.27,97,48,1.79,RU,1717279541
92,new norfolk,-42.7826,147.0587,7.18,95,2,0.98,AU,1717279541
93,saipan,15.1355,145.701,29.39,79,40,4.12,MP,1717279541
94,sisimiut,66.9395,-53.6735,-0.33,75,87,2.26,GL,1717279541
95,remire-montjoly,4.9167,-52.2667,27.02,94,75,2.06,GF,1717279541
96,paredon,16.0333,-93.8667,31.09,66,99,3.94,MX,1717279541
97,bethel,41.3712,-73.414,28.89,35,0,2.57,US,1717279541
98,iskateley,67.6803,53.1512,-3.32,97,53,1.79,RU,1717279541
99,punta arenas,-53.15,-70.9167,1.73,93,0,3.09,CL,1717279384
100,pompeu,-19.2244,-44.9353,23.08,43,55,4.92,BR,1717279286
101,san pablo villa de mitla,16.9167,-96.4,33.13,16,100,6.09,MX,1717279542
102,cururupu,-1.8283,-44.8683,23.82,99,9,0.46,BR,1717279375
103,bilibino,68.0546,166.4372,6.69,51,7,2.06,RU,1717279542
104,kodiak,57.79,-152.4072,8.73,87,100,7.72,US,1717279542
105,vikulovo,56.8167,70.6107,6.31,91,19,2.69,RU,1717279542
106,yakeshi,49.2833,120.7333,15.73,36,6,1.2,CN,1717279542
107,tokar,18.4254,37.729,27.31,60,1,1.6,SD,1717279542
108,haiku-pauwela,20.9219,-156.3051,27.01,72,40,12.86,US,1717279543
109,ves'yegonsk,58.664,37.2604,16.63,74,52,2.25,RU,1717279543
110,atafu village,-8.5421,-172.5159,28.87,74,60,5.32,TK,1717279543
111,vorgashor,67.5833,63.95,-5.11,95,98,4.66,RU,1717279543
112,ancud,-41.8697,-73.8203,8.2,77,93,8.09,CL,1717279543
113,okhotsk,59.3833,143.3,8.57,58,100,7.98,RU,1717279543
114,egilsstadir,65.2653,-14.3948,12.95,58,75,2.06,IS,1717279544
115,kokoda,-8.8785,147.7407,25.91,89,36,0.91,PG,1717279544
116,hamilton,39.1834,-84.5333,23.1,72,100,3.6,US,1717279544
117,mana,5.6592,-53.7767,26.52,88,99,2.93,GF,1717279544
118,mount isa,-20.7333,139.5,5.87,93,0,1.54,AU,1717279544
119,banfora,10.6333,-4.7667,27.68,68,85,2.4,BF,1717279544
120,constantia,44.1833,28.65,20.39,80,54,3.69,RO,1717279445
121,ringkobing,56.0901,8.244,14.99,94,100,4.63,DK,1717279545
122,saint-philippe,-21.3585,55.7679,20.77,72,42,3.75,RE,1717279545
123,pisco,-13.7,-76.2167,17.03,82,100,3.6,PE,1717279427
124,port mathurin,-19.6833,63.4167,24.08,74,100,8.96,MU,1717279545
125,vila velha,-20.3297,-40.2925,22.97,78,20,4.12,BR,1717279132
126,shingu,33.7333,135.9833,19.5,63,74,1.0,JP,1717279545
127,montmagny,48.9734,2.3469,13.31,93,100,6.69,FR,1717279545
128,isafjordur,66.0755,-23.124,6.23,71,96,4.21,IS,1717279545
129,praia da vitoria,38.7333,-27.0667,20.14,77,20,4.19,PT,1717279545
130,old harbour bay,17.9092,-77.0972,26.99,92,100,2.76,JM,1717279546
131,nema,57.5067,50.5011,12.25,73,0,2.18,RU,1717279546
132,daru,-9.0763,143.2092,26.14,78,83,6.02,PG,1717279546
133,kone,-21.0595,164.8658,25.62,65,21,4.69,NC,1717279546
134,boali,4.8005,18.1275,22.92,89,99,0.57,CF,1717279546
135,rampur,28.8167,79.0333,33.38,22,98,3.86,IN,1717279546
136,crane,31.3974,-102.3501,34.47,33,0,7.81,US,1717279546
137,antofagasta,-23.65,-70.4,15.6,84,32,2.94,CL,1717279539
138,preobrazheniye,42.9019,133.9064,11.52,97,100,0.92,RU,1717279546
139,portland,45.5234,-122.6762,23.8,48,75,3.13,US,1717279057
140,chonchi,-42.6128,-73.8092,6.56,91,99,1.08,CL,1717279547
141,xinzhou,38.4092,112.7333,21.11,49,100,0.92,CN,1717279286
142,parry sound,45.3501,-80.033,22.03,40,100,2.09,CA,1717279547
143,kingston,17.997,-76.7936,26.53,83,75,10.29,JM,1717279285
144,vorkuta,67.5,64.0,-4.94,95,98,4.02,RU,1717279547
145,fortuna,40.5982,-124.1573,20.52,75,0,6.17,US,1717279548
146,murzuq,25.9155,13.9184,31.36,14,40,2.94,LY,1717279548
147,port elizabeth,-33.918,25.5701,15.61,97,100,9.77,ZA,1717279263
148,guiuan,11.0333,125.7247,29.07,71,95,2.59,PH,1717279548
149,taltal,-25.4,-70.4833,17.97,77,30,2.36,CL,1717279548
150,lubang,13.8584,120.124,29.94,76,51,1.84,PH,1717279548
151,as suki,13.3167,33.8833,35.47,14,46,2.97,SD,1717279548
152,biltine,14.5333,20.9167,34.07,13,1,3.57,TD,1717279548
153,kununurra,-15.7667,128.7333,20.99,78,100,3.6,AU,1717279549
154,n'zeto,-7.2312,12.8666,23.73,82,48,4.74,AO,1717279549
155,smithers,54.7804,-127.1743,14.18,62,75,3.6,CA,1717279339
156,camocim,-2.9022,-40.8411,26.43,85,10,3.48,BR,1717279549
157,mabaruma,8.2,-59.7833,26.79,81,51,2.0,GY,1717279549
158,fergus falls,46.283,-96.0776,23.07,37,0,6.17,US,1717279549
159,kuching,1.55,110.3333,26.72,94,20,0.0,MY,1717279549
160,mahina,-17.5065,-149.489,28.87,65,75,6.69,PF,1717279549
161,baukau,51.5526,7.2042,17.81,85,100,3.57,DE,1717279550
162,thompson,55.7435,-97.8558,11.09,66,100,5.14,CA,1717279299
163,east london,-33.0153,27.9116,17.72,84,100,13.37,ZA,1717279276
164,beloyarskiy,63.7119,66.6722,-1.11,86,24,2.24,RU,1717279550
165,atascocita,29.9988,-95.1766,33.33,71,75,3.09,US,1717279379
166,jati,24.3539,68.2671,27.97,76,0,5.63,PK,1717279550
167,siem reap,13.5,104.0,24.96,88,100,0.73,KH,1717279550
168,badger,64.8,-147.5333,22.93,28,40,2.57,US,1717279550
169,westport,41.1415,-73.3579,29.6,34,6,2.68,US,1717279278
170,kerema,-7.9631,145.7785,25.68,90,100,1.72,PG,1717279550
171,zaozersk,69.4005,32.4476,6.07,91,67,2.92,RU,1717279551
172,puerto aysen,-45.4,-72.7,4.25,98,100,0.5,CL,1717279343
173,fale old settlement,-9.3852,-171.2468,28.98,72,92,5.58,TK,1717279551
174,arawa,-6.2132,155.5367,25.42,93,100,0.65,PG,1717279551
175,luang namtha,20.9497,101.4011,23.29,99,100,0.51,LA,1717279551
176,avarua,-21.2078,-159.775,25.03,65,75,1.03,CK,1717279551
177,petropavlovsk-kamchatsky,53.0452,158.6483,8.33,95,0,4.92,RU,1717279551
178,bakaly,55.1789,53.8028,14.0,88,38,1.36,RU,1717279551
179,qaqortoq,60.7167,-46.0333,1.53,98,100,3.1,GL,1717279551
180,vernon,50.2581,-119.2691,21.45,52,96,2.06,CA,1717279552
181,placido de castro,-10.3353,-67.1856,25.46,62,0,1.33,BR,1717279552
182,port-cartier,50.0334,-66.8654,13.12,58,2,2.49,CA,1717279329
183,kobarid,46.2481,13.5772,16.54,90,100,0.55,SI,1717279552
184,sitia,35.2,26.0986,22.77,80,18,1.49,GR,1717279552
185,wynyard,-41.0,145.7167,5.8,83,0,2.54,AU,1717279553
186,cadale,2.7603,46.3222,26.37,87,74,7.91,SO,1717279553
187,arraial do cabo,-22.9661,-42.0278,22.92,73,20,7.72,BR,1717279553
188,leh,34.1667,77.5833,3.19,56,79,2.44,IN,1717279553
189,lompoc,34.6391,-120.4579,20.34,74,20,6.69,US,1717279370
190,hammerfest,70.6634,23.6821,7.25,100,75,0.51,NO,1717279553
191,nuuk,64.1835,-51.7216,1.34,86,100,7.2,GL,1717279501
192,uravakonda,14.95,77.2667,27.14,69,99,7.6,IN,1717279553
193,mount pearl,47.5166,-52.7813,7.07,97,100,4.63,CA,1717279553
194,torghay,49.6339,63.4981,15.89,64,8,6.82,KZ,1717279554
195,porto novo,6.4965,2.6036,28.9,80,73,4.3,BJ,1717279554
196,vanino,49.0869,140.2543,14.4,89,100,4.52,RU,1717279554
197,hasaki,35.7333,140.8333,17.38,80,100,6.19,JP,1717279554
198,grand falls-windsor,48.9332,-55.6649,4.49,97,100,6.12,CA,1717279255
199,tumaco,1.7986,-78.8156,27.53,85,94,4.26,CO,1717279437
200,camarinas,43.1311,-9.1817,14.96,81,6,12.33,ES,1717279554
201,tura,25.5198,90.2201,24.33,95,43,2.05,IN,1717279554
202,lihue,21.9789,-159.3672,28.58,66,20,8.75,US,1717279555
203,prince rupert,54.3161,-130.3201,10.05,85,100,2.06,CA,1717279419
204,susuman,62.7833,148.1667,6.1,60,39,3.58,RU,1717279555
205,susangerd,31.5608,48.1831,34.17,11,0,10.96,IR,1717279555
206,al qaryatayn,34.2296,37.2407,21.33,32,0,2.04,SY,1717279555
207,margaret river,-33.95,115.0667,14.63,74,100,9.8,AU,1717279555
208,howard springs,-12.497,131.047,22.95,88,2,4.51,AU,1717279555
209,noida,28.58,77.33,32.16,23,100,4.19,IN,1717279269
210,san patricio,28.017,-97.5169,34.53,56,12,7.14,US,1717279555
211,holualoa,19.6228,-155.9522,26.97,73,0,4.63,US,1717279556
212,udachny,66.4167,112.4,6.36,66,49,4.61,RU,1717279328
213,santana,-0.0583,-51.1817,28.1,83,20,2.06,BR,1717279556
214,jala,21.0833,-104.4333,36.93,14,21,5.35,MX,1717279556
215,kokopo,-4.352,152.2633,26.69,81,59,1.51,PG,1717279556
216,tazacorte,28.629,-17.9293,20.54,92,0,4.12,ES,1717279556
217,rio grande,-32.035,-52.0986,19.06,81,49,4.24,BR,1717279294
218,letlhakeng,-24.0944,25.0298,14.63,34,5,3.52,BW,1717279556
219,aasiaat,68.7098,-52.8699,-0.39,68,75,1.1,GL,1717279556
220,tamanrasset,22.785,5.5228,28.95,12,0,2.57,DZ,1717279557
221,refojos de basto,41.5132,-7.9952,19.38,58,4,3.72,PT,1717279557
222,vilyuchinsk,52.9306,158.4028,9.15,70,38,1.85,RU,1717279557
223,savannakhet,16.566,104.751,24.62,96,100,2.16,LA,1717279557
224,khorixas,-20.3667,14.9667,7.72,44,0,1.49,NA,1717279557
225,shangzhi,45.2167,127.9667,10.71,93,92,0.4,CN,1717279557
226,vadso,70.0744,29.7487,6.49,93,100,1.54,NO,1717279557
227,austin,30.2672,-97.7431,33.25,64,75,3.09,US,1717278970
228,alofi,-19.0595,-169.9187,24.94,69,40,8.23,NU,1717279558
229,loiza,18.4313,-65.8802,31.62,74,40,6.69,PR,1717279558
230,pama,11.2497,0.7075,31.4,55,29,3.26,BF,1717279558
231,kharp,66.8014,65.8081,-2.94,90,91,3.33,RU,1717279558
232,mastic beach,40.7668,-72.8521,28.42,50,0,6.71,US,1717279558
233,tolanaro,-25.0319,46.9987,19.04,88,0,0.0,MG,1717279558
234,raja,8.4596,25.678,26.34,54,49,2.26,SS,1717279558
235,vrangel',42.7297,133.0839,10.97,96,99,1.27,RU,1717279558
236,pyhaselka,62.4333,29.9667,16.15,83,47,3.02,FI,1717279559
237,pagar alam,-4.0167,103.2667,20.41,96,100,1.56,ID,1717279559
238,alice springs,-23.7,133.8833,3.75,93,0,1.54,AU,1717279368
239,queenstown,-31.8976,26.8753,10.97,93,92,2.41,ZA,1717279559
240,brookings,44.3114,-96.7984,25.62,42,0,1.54,US,1717279421
241,nantucket,41.2835,-70.0995,22.06,44,0,6.69,US,1717279544
242,warrnambool,-38.3833,142.4833,10.52,67,60,2.35,AU,1717279559
243,babolsar,36.7025,52.6576,21.92,80,28,12.71,IR,1717279559
244,sitangkai,4.6628,119.3928,28.75,73,92,1.78,PH,1717279560
245,nanakuli,21.3906,-158.1547,28.97,48,0,6.17,US,1717279458
246,natal,-5.795,-35.2094,25.36,94,75,5.14,BR,1717279268
247,tual,-5.6667,132.75,27.96,80,93,9.7,ID,1717279560
248,stanley,54.868,-1.6985,9.33,91,0,0.51,GB,1717279449
249,corinto,37.9407,22.9573,23.46,67,0,0.25,GR,1717279560
250,berezovyy,51.6667,135.7,10.0,73,98,2.44,RU,1717279560
251,uturoa,-16.7333,-151.4333,26.49,72,78,2.63,PF,1717279560
252,wailua homesteads,22.0669,-159.378,28.24,74,20,8.75,US,1717279560
253,iwanai,42.9744,140.5089,12.76,56,100,2.88,JP,1717279561
254,clearwater,27.9659,-82.8001,33.35,44,0,5.14,US,1717279417
255,sao joao da barra,-21.6403,-41.0511,20.05,72,39,4.93,BR,1717279388
256,ribadesella,43.4614,-5.0596,16.08,80,55,3.98,ES,1717279561
257,codrington,-38.2667,141.9667,6.53,82,12,1.18,AU,1717279561
258,galliano,29.4422,-90.2992,26.0,83,100,4.63,US,1717279561
259,vila franca do campo,37.7167,-25.4333,19.23,99,16,2.54,PT,1717279561
260,mugia,43.1041,-9.2179,14.95,80,6,12.29,ES,1717279561
261,urumqi,43.801,87.6005,17.53,32,0,1.0,CN,1717279561
262,minas de marcona,-15.2119,-75.1103,17.17,61,0,4.38,PE,1717279562
263,campo maior,-4.8278,-42.1686,27.47,62,85,1.75,BR,1717279562
264,jiuquan,39.7432,98.5174,14.65,22,31,1.38,CN,1717279562
265,roma,43.2128,-75.4557,24.49,38,0,3.6,US,1717279562
266,new glasgow,45.5834,-62.6486,8.88,82,97,5.56,CA,1717279538
267,zeya,53.75,127.2667,20.27,47,5,2.74,RU,1717279562
268,toliara,-23.35,43.6667,22.09,43,0,2.9,MG,1717279562
269,ixtapa,20.7,-105.2,29.57,70,20,5.14,MX,1717279562
270,colonia,50.9333,6.95,17.76,85,75,5.66,DE,1717279417
271,yangquan,37.8575,113.5633,22.58,46,100,5.91,CN,1717279563
272,shahr-e babak,30.1165,55.1186,26.84,11,0,3.55,IR,1717279563
273,dzilam gonzalez,21.2833,-88.9333,33.61,51,1,5.29,MX,1717279563
274,ta`u,-14.2336,-169.5144,27.83,74,98,8.76,AS,1717279563
275,sarangani,5.4033,125.4636,28.79,75,100,6.18,PH,1717279563
276,puerto deseado,-47.7503,-65.8938,5.01,94,100,4.82,AR,1717279563
277,gorey,52.6747,-6.2925,13.6,90,30,1.87,IE,1717279563
278,raghunathpur,23.55,86.6667,28.24,66,100,2.2,IN,1717279564
279,xilin hot,43.9667,116.0333,13.2,35,0,1.65,CN,1717279564
280,murghob,38.1702,73.9667,2.91,32,61,2.03,TJ,1717279564
281,pacific grove,36.6177,-121.9166,24.45,78,100,6.17,US,1717279564
282,punta gorda,26.9298,-82.0454,33.03,51,0,6.17,US,1717279448
283,nuku'alofa,-21.1333,-175.2,25.19,61,20,6.17,TO,1717279564
284,pavlovsk,50.4578,40.1081,17.74,82,48,1.76,RU,1717279564
285,paciran,-6.8767,112.3761,25.49,91,29,3.32,ID,1717279564
286,pailin,12.849,102.6093,24.46,93,100,1.76,KH,1717279565
287,chulakkurgan,43.765,69.1814,21.49,24,0,4.17,KZ,1717279565
288,jandiala guru,31.5614,75.0267,28.96,23,2,2.43,IN,1717279565
289,st. john's,47.5649,-52.7093,7.53,97,100,4.63,CA,1717279565
290,shindand,33.3029,62.1474,22.31,15,0,3.57,AF,1717279329
291,keflavik,64.0049,-22.5624,8.24,93,75,9.26,IS,1717279565
292,fiambala,-27.6871,-67.6149,17.21,14,22,1.38,AR,1717279565
293,tanumah,27.1,44.1333,31.65,15,0,8.02,SA,1717279469
294,srednebelaya,50.6594,128.0106,17.21,63,55,1.42,RU,1717279566
295,lincoln city,44.9582,-124.0179,20.02,82,100,3.58,US,1717279297
296,freeport,40.6576,-73.5832,30.83,41,0,7.72,US,1717279316
297,palmer,42.1584,-72.3287,28.34,34,0,2.57,US,1717279566
298,nemuro,43.3236,145.575,7.81,69,32,2.68,JP,1717279566
299,jaguarao,-32.5661,-53.3758,15.42,89,63,4.05,BR,1717279285
300,mizan teferi,6.9833,35.5833,16.65,96,22,1.31,ET,1717279566
301,lieksa,63.3167,30.0167,16.19,79,68,2.23,FI,1717279566
302,pennagaram,12.1333,77.9,26.43,86,100,1.44,IN,1717279566
303,newport,51.5877,-2.9984,15.46,79,80,3.36,GB,1717279567
304,reggane,26.7158,0.1714,32.55,13,1,4.11,DZ,1717279567
305,touros,-5.1989,-35.4608,25.68,88,29,4.82,BR,1717279567
306,north bend,43.4065,-124.2243,21.25,77,100,4.63,US,1717279567
307,qingdao,36.0986,120.3719,17.78,77,0,3.0,CN,1717279567
308,san andres,12.5847,-81.7006,29.01,89,40,6.17,CO,1717279567
309,zhalantun,48.0,122.7167,16.43,45,10,1.78,CN,1717279567
310,vrsac,45.1167,21.3036,19.9,73,0,3.09,RS,1717279353
311,hadibu,12.65,54.0333,28.51,75,54,4.3,YE,1717279568
312,troitskiy,57.0603,63.7481,5.81,67,7,2.41,RU,1717279568
313,buriti alegre,-18.14,-49.0403,19.35,50,0,1.91,BR,1717279568
314,slyudyanka,51.6594,103.7061,8.54,96,100,0.62,RU,1717279568
315,afaahiti,-17.75,-149.2833,27.93,74,40,1.88,PF,1717279568
316,sault ste. marie,46.5168,-84.3333,22.31,39,20,4.12,CA,1717279563
317,tommot,58.9564,126.2925,15.93,73,7,1.22,RU,1717279568
318,conception bay south,47.4999,-52.9981,7.4,98,100,2.6,CA,1717279281
319,micheweni,-4.9667,39.8333,25.52,87,44,4.99,TZ,1717279569
320,acarau,-2.8856,-40.12,26.27,85,14,4.89,BR,1717279269
321,kuta,-8.7233,115.1723,26.97,100,75,4.63,ID,1717279569
322,kyelang,32.5833,77.0333,-2.27,71,2,3.52,IN,1717279569
323,manaure,11.7751,-72.4445,32.8,53,99,8.13,CO,1717279569
324,new martinsville,39.6445,-80.8576,25.94,50,100,1.62,US,1717279569
325,palikir - national government center,6.9248,158.1611,29.47,79,75,4.63,FM,1717279569
326,igarka,67.4667,86.5833,0.01,92,100,5.81,RU,1717279570
327,bamboo flat,11.7,92.7167,26.74,82,100,6.79,IN,1717279570
328,manokwari,-0.8667,134.0833,26.7,73,94,0.8,ID,1717279570
329,el nido,11.1858,119.3956,28.58,81,49,2.16,PH,1717279570
330,kapuskasing,49.4169,-82.4331,26.0,31,100,6.17,CA,1717279318
331,nizhnyaya tavda,57.6731,66.1725,5.08,70,3,2.37,RU,1717279570
332,saint-francois,46.4154,3.9054,12.69,90,100,4.12,FR,1717279570
333,port lincoln,-34.7333,135.8667,11.81,72,8,4.28,AU,1717279571
334,floro,61.5996,5.0328,12.04,82,28,6.17,NO,1717279571
335,namibe,-15.1961,12.1522,19.28,70,27,1.19,AO,1717279571
336,savanna-la-mar,18.219,-78.1332,27.18,79,100,2.07,JM,1717279571
337,rabo de peixe,37.8,-25.5833,18.73,99,20,3.6,PT,1717279571
338,kapa'a,22.0752,-159.319,28.99,73,20,8.75,US,1717279460
339,polonnaruwa,7.9333,81.0,26.37,84,99,3.77,LK,1717279571
340,nova sintra,14.8667,-24.7167,24.36,76,0,8.13,CV,1717279571
341,ha giang,22.8333,104.9833,25.12,97,100,0.37,VN,1717279571
342,saudarkrokur,65.7461,-19.6394,8.57,80,100,5.41,IS,1717279572
343,forster,-32.1667,152.5167,12.94,95,99,5.83,AU,1717279572
344,kozel'sk,54.0375,35.7716,15.75,96,92,1.65,RU,1717279572
345,glace bay,46.1969,-59.957,11.55,92,100,7.2,CA,1717279469
346,urangan,-25.3,152.9,15.67,93,100,4.92,AU,1717279572
347,metahara,8.9,39.9167,25.17,30,23,1.91,ET,1717279572
348,buka,40.8108,69.1986,20.62,27,3,1.69,UZ,1717279572
349,bouca,6.5105,18.2733,22.61,98,96,1.91,CF,1717279572
350,gebeit,21.0667,36.3167,27.31,19,6,3.83,SD,1717279573
351,port blair,11.6667,92.75,27.25,82,100,7.12,IN,1717279573
352,son la,21.3167,103.9,20.53,97,99,0.9,VN,1717279573
353,kurmuk,10.55,34.2833,24.62,66,75,1.85,SD,1717279573
354,chernyshevskiy,63.0128,112.4714,7.86,59,80,3.08,RU,1717279573
355,labytnangi,66.6572,66.4183,-2.57,87,82,4.35,RU,1717279573
356,idri,27.5,13.2667,31.45,24,34,9.45,LY,1717279573
357,benguela,-12.5763,13.4055,20.66,79,0,3.09,AO,1717279573
358,prado,-17.3411,-39.2208,22.87,86,18,4.73,BR,1717279573
359,savelugu,9.6244,-0.8253,27.66,74,19,3.61,GH,1717279574
360,umba,66.6871,34.3429,10.39,95,100,0.74,RU,1717279574
361,jiangyou,31.7667,104.7167,19.31,72,100,2.36,CN,1717279574
362,hirara,24.8,125.2833,26.15,100,100,3.6,JP,1717279574
363,bagan,54.1001,77.6646,7.22,64,4,2.8,RU,1717279574
364,gracemere,-23.4333,150.45,16.95,88,100,3.09,AU,1717279574
365,necochea,-38.5473,-58.7368,11.01,74,2,6.52,AR,1717279574
366,ulsteinvik,62.3432,5.8487,12.4,83,30,0.51,NO,1717279575
367,nambucca heads,-30.65,153.0,15.56,85,10,2.76,AU,1717279575
368,rouyn-noranda,48.2398,-79.0288,25.05,29,75,5.14,CA,1717279275
369,rawson,-43.3002,-65.1023,8.68,42,66,5.37,AR,1717279575
370,mukalla,14.5425,49.1242,29.38,79,9,1.05,YE,1717279575
371,wotje,9.4543,170.2367,28.04,82,76,7.73,MH,1717279575
372,kombissiri,12.0656,-1.3375,34.99,40,62,5.37,BF,1717279569
373,bhayavadar,21.85,70.25,29.18,65,4,5.35,IN,1717279575
374,taulaga,-11.0553,-171.0883,28.89,75,71,8.42,AS,1717279576
375,jintur,19.6167,76.7,32.62,38,55,6.83,IN,1717279576
376,cidreira,-30.1811,-50.2056,15.05,86,53,3.19,BR,1717279365
377,dryden,49.7833,-92.7503,19.16,34,20,7.72,CA,1717279576
378,bandarbeyla,9.4942,50.8122,26.9,80,24,9.79,SO,1717279576
379,pudozh,61.8099,36.5345,14.41,91,73,1.34,RU,1717279576
380,plettenberg bay,-34.0527,23.3716,14.78,93,99,9.13,ZA,1717279576
381,ruovesi,61.9858,24.0571,18.1,98,87,2.35,FI,1717279577
382,mirante do paranapanema,-22.2919,-51.9064,20.09,47,12,2.24,BR,1717279478
383,itoman,26.1247,127.6694,22.21,96,75,3.6,JP,1717279577
384,broken hill,-31.95,141.4333,5.6,78,0,4.32,AU,1717279577
385,kailua-kona,19.6406,-155.9956,29.04,73,0,4.63,US,1717279577
386,barela,23.1,80.05,33.9,27,44,2.18,IN,1717279577
387,usogorsk,63.4106,48.6872,15.37,85,94,2.34,RU,1717279577
388,marsh harbour,26.5412,-77.0636,25.78,69,100,9.52,BS,1717279578
389,aykhal,66.0,111.5,4.62,63,54,3.73,RU,1717279578
390,luanda,-8.8368,13.2343,24.0,83,75,2.57,AO,1717279556
391,baise city,23.8997,106.6133,24.48,94,68,0.96,CN,1717279578
392,sinop,41.7711,34.8709,17.3,53,0,4.19,TR,1717279326
393,winnipeg,49.8844,-97.147,21.99,27,75,9.26,CA,1717279487
394,suva,-18.1416,178.4415,25.71,73,75,5.14,FJ,1717279578
395,labrador city,52.9463,-66.9114,21.95,29,40,4.63,CA,1717279578
396,dodge city,37.7528,-100.0171,32.14,34,0,7.2,US,1717279578
397,sinabang,2.4803,96.3801,27.29,79,100,1.06,ID,1717279579
398,kirensk,57.7853,108.1119,11.09,62,100,1.34,RU,1717279579
399,potosi,-19.5836,-65.7531,9.91,17,47,2.25,BO,1717279370
400,burumburum,11.3911,8.7234,26.98,58,68,4.71,NG,1717279579
401,dwarka,22.2394,68.9678,28.85,78,16,6.4,IN,1717279579
402,brasilia de minas,-16.2064,-44.4333,23.16,46,18,4.58,BR,1717279286
403,nadi,-17.8,177.4167,28.0,61,40,6.69,FJ,1717279579
404,anupgarh,29.1911,73.2086,33.58,29,3,7.53,IN,1717279579
405,dzhalagash,45.0833,64.6667,22.56,32,3,1.75,KZ,1717279580
406,williams lake,52.1415,-122.1445,15.76,54,75,2.57,CA,1717279580
407,gisborne,-38.6533,178.0042,15.9,72,100,4.63,NZ,1717279580
408,tandil,-37.3217,-59.1332,9.82,58,34,3.27,AR,1717279024
409,yerba buena,-26.8167,-65.3167,17.72,60,32,2.26,AR,1717279580
410,tacuarembo,-31.7333,-55.9833,14.5,93,57,2.99,UY,1717279580
411,tofol,5.3248,163.0078,28.67,77,33,5.32,FM,1717279580
412,bom jardim,-7.7958,-35.5872,21.61,95,9,2.58,BR,1717279322
413,ilha de mocambique,-15.0342,40.7358,25.72,79,0,1.35,MZ,1717279580
414,bondo,3.8146,23.6866,21.66,96,90,1.14,CD,1717279581
415,smolyaninovo,43.2956,132.4675,11.86,99,100,0.8,RU,1717279581
416,kofele,7.0667,38.7833,10.59,73,62,2.18,ET,1717279581
417,tossa de mar,41.7325,2.9338,16.34,62,100,2.56,ES,1717279581
418,codajas,-3.8367,-62.0569,24.71,96,59,0.96,BR,1717279581
419,taroa,8.7058,171.2275,28.1,82,32,7.82,MH,1717279581
420,puerto baquerizo moreno,-0.9,-89.6,26.55,61,20,5.14,EC,1717279582
421,laguna,38.421,-121.4238,33.08,36,0,4.12,US,1717279582
422,crookston,47.7741,-96.6081,23.06,23,0,7.2,US,1717279582
423,happy valley-goose bay,53.3168,-60.3315,20.17,17,20,2.06,CA,1717279582
424,lhokseumawe,5.1801,97.1507,26.04,81,100,2.54,ID,1717279582
425,libenge,3.65,18.6333,24.6,81,83,1.11,CD,1717279582
426,bria,6.5423,21.9863,21.48,92,100,1.66,CF,1717279582
427,morondava,-20.2833,44.2833,25.17,42,64,2.15,MG,1717279582
428,hagi,34.4,131.4167,18.81,85,91,2.24,JP,1717279583
429,nagqu,31.5,92.0,3.37,90,100,3.86,CN,1717279583
430,el trebol,-32.2008,-61.7014,17.79,73,48,0.45,AR,1717279583
431,kutoarjo,-7.7169,109.9128,24.57,96,88,1.36,ID,1717279583
432,port-vila,-17.7338,168.3219,25.78,83,100,4.63,VU,1717279583
433,saynshand,44.8824,110.1163,16.44,22,81,3.15,MN,1717279583
434,mejit,10.2753,170.8646,28.1,83,99,7.69,MH,1717279583
435,brezina,33.0989,1.2608,25.68,35,90,7.42,DZ,1717279583
436,miquelon,47.0975,-56.3814,9.0,96,100,11.42,PM,1717279583
437,sur,22.5667,59.5289,33.48,44,0,4.03,OM,1717279584
438,klyuchi,52.2667,79.1667,8.96,56,92,4.65,RU,1717279584
439,lazaro cardenas,17.9583,-102.2,30.85,52,41,5.35,MX,1717279584
440,magadan,59.5667,150.8,12.52,62,100,4.61,RU,1717279390
441,chetwayi,10.5333,76.05,26.96,86,100,2.08,IN,1717279584
442,sao paulo de olivenca,-3.3783,-68.8725,27.02,77,93,0.66,BR,1717279584
443,dauphin,51.1494,-100.0502,22.08,30,20,11.32,CA,1717279317
444,kharan,28.5833,65.4167,29.39,8,0,1.58,PK,1717279585
445,vodnyy,63.5046,53.4095,13.01,85,93,0.96,RU,1717279585
446,kertih,4.5141,103.4483,24.01,100,100,0.0,MY,1717279585
447,kupang,-10.1667,123.5833,29.32,79,20,4.63,ID,1717279585
448,ban nong wua so,17.2675,103.2247,26.08,95,100,2.88,TH,1717279585
449,abbeville,50.1,1.8333,13.61,89,95,4.67,FR,1717279585
450,long beach,33.767,-118.1892,26.73,70,0,4.92,US,1717279007
451,fort st. john,56.2499,-120.8529,17.94,29,75,2.06,CA,1717279585
452,xapuri,-10.6517,-68.5044,25.56,56,0,0.34,BR,1717279586
453,padang,-0.9492,100.3543,26.03,84,100,2.13,ID,1717279356
454,fort bragg,35.139,-79.006,27.89,37,0,2.57,US,1717279448
455,gaiman,-43.2897,-65.4929,8.08,40,90,4.43,AR,1717279586
456,portage,41.1667,-81.1998,26.13,39,0,1.54,US,1717279536
457,thunder bay,48.4001,-89.3168,17.95,72,75,5.14,CA,1717279405
458,churachandpur,24.3333,93.6667,18.73,97,85,1.0,IN,1717279586
459,bestobe,52.4994,73.0975,11.69,56,100,3.09,KZ,1717279586
460,robore,-18.3333,-59.75,25.33,37,0,2.11,BO,1717279586
461,puerto madryn,-42.7692,-65.0385,9.17,40,20,4.63,AR,1717278995
462,malango,-2.9627,119.9001,20.12,99,99,0.64,ID,1717279587
463,omoku,5.3435,6.6532,28.09,97,83,1.31,NG,1717279587
464,esil,51.9556,66.4042,9.4,87,1,6.66,KZ,1717279587
465,tiznit,29.5833,-9.5,18.11,80,16,0.84,MA,1717279587
466,bhimunipatnam,17.8833,83.4333,30.73,79,100,3.41,IN,1717279587
467,phan thiet,10.9333,108.1,26.18,83,100,2.63,VN,1717279587
468,tidjikja,18.5564,-11.4271,31.21,16,0,5.21,MR,1717279587
469,bahia blanca,-38.7196,-62.2724,10.74,58,0,3.18,AR,1717279484
470,tabou,4.423,-7.3528,25.04,93,100,2.88,CI,1717279520
471,kerikeri,-35.2268,173.9474,16.62,94,100,2.68,NZ,1717279588
472,coruripe,-10.1256,-36.1756,24.67,85,19,3.23,BR,1717279588
473,bafra,41.5678,35.9069,17.94,65,0,2.31,TR,1717279588
474,karratha,-20.7377,116.8463,23.24,86,93,2.79,AU,1717279588
475,abepura,-2.6333,140.5833,25.45,94,20,1.03,ID,1717279588
476,as samawah,31.332,45.2944,32.57,15,0,6.96,IQ,1717279588
477,taoudenni,22.6783,-3.9836,34.08,15,0,4.12,ML,1717279588
478,xai-xai,-25.0519,33.6442,20.07,72,0,3.63,MZ,1717279588
479,obigarm,38.7173,69.7088,11.11,67,11,2.23,TJ,1717279589
480,okoneshnikovo,54.8377,75.0834,7.83,66,6,1.44,RU,1717279589
481,freetown,8.484,-13.2299,27.84,78,40,5.14,SL,1717279589
482,ndioum,16.5129,-14.6471,28.0,35,2,7.43,SN,1717279589
483,chibougamau,49.9168,-74.3659,26.79,28,40,3.6,CA,1717279589
484,semera,11.501,41.201,31.87,20,27,4.43,ET,1717279589
485,hakone,35.1833,139.0333,13.38,92,100,1.77,JP,1717279589
486,la libertad,-2.2333,-80.9,23.81,88,75,3.6,EC,1717279445
487,tyukhtet,56.5389,89.3011,3.43,91,33,2.23,RU,1717279590
488,hanzhong,33.0728,107.0303,17.36,95,100,0.41,CN,1717279590
489,icano,-28.9193,-65.3282,19.91,51,91,2.14,AR,1717279590
490,ketchikan,55.3422,-131.6461,11.26,82,100,5.14,US,1717279590
491,riviere-du-loup,47.8304,-69.5342,18.15,36,34,3.6,CA,1717279560
492,tangalle,6.024,80.7911,26.09,89,89,4.27,LK,1717279590
493,baoqing,46.3317,132.2111,14.31,83,35,0.84,CN,1717279590
494,san juan bautista,-14.0108,-75.7358,23.9,45,0,4.51,PE,1717279591
495,dudinka,69.4058,86.1778,-1.85,94,100,10.73,RU,1717279591
496,port hedland,-20.3167,118.5667,20.03,83,10,3.6,AU,1717279591
497,kourou,5.1552,-52.6478,27.03,90,87,2.25,GF,1717279591
498,coronel suarez,-37.4547,-61.9334,9.62,50,76,2.81,AR,1717279591
499,chui,-33.6971,-53.4616,14.05,95,26,2.53,UY,1717279591
500,pangody,65.85,74.4859,-2.57,93,97,9.51,RU,1717279591
501,kiama,-34.6833,150.8667,14.44,72,96,3.13,AU,1717279591
502,borogontsy,62.6683,131.1683,13.52,37,17,2.92,RU,1717279591
503,kavaratti,10.5669,72.642,28.37,83,100,6.02,IN,1717279592
504,sadovoye,47.7764,44.5089,19.43,78,100,3.33,RU,1717279592
505,naze,28.3667,129.4833,20.51,77,100,4.27,JP,1717279592
506,kurchatov,51.6601,35.6521,15.23,88,0,1.54,RU,1717279592
507,ashkasham,36.6833,71.5333,7.39,63,2,0.71,AF,1717279592
508,paoua,7.2427,16.4406,21.63,95,100,2.38,CF,1717279592
509,cabo san lucas,22.8909,-109.9124,33.17,27,0,4.63,MX,1717279539
510,thurso,58.5927,-3.5259,10.48,81,34,4.59,GB,1717279592
511,cannonvale,-20.2833,148.7,20.66,88,91,1.98,AU,1717279592
512,banda aceh,5.5577,95.3222,28.37,67,100,4.47,ID,1717279593
513,betio village,1.358,172.9211,30.02,68,4,6.03,KI,1717279593
514,karachayevsk,43.774,41.9142,12.81,94,100,2.24,RU,1717279593
515,beau vallon,-20.4189,57.6953,23.13,88,75,6.69,MU,1717279593
516,harper,4.375,-7.7169,25.05,94,100,3.17,LR,1717279593
517,gunupur,19.0833,83.8167,29.42,86,89,1.58,IN,1717279593
518,tateyama,34.9833,139.8667,20.61,85,100,5.22,JP,1717279593
519,port isabel,26.0734,-97.2086,35.04,77,0,9.26,US,1717279594
520,pavlikeni,43.2428,25.3219,16.57,89,43,0.94,BG,1717279594
521,inongo,-1.95,18.2667,22.9,91,91,1.75,CD,1717279594
522,masina,-4.3836,15.3914,24.19,83,6,0.0,CD,1717279594
523,marka,1.7159,44.7717,25.97,92,87,5.77,SO,1717279594
524,tyup,42.7276,78.3648,9.25,53,17,2.21,KG,1717279594
525,akureyri,65.6835,-18.0878,10.96,62,75,3.09,IS,1717279594
526,makhambet,47.6667,51.5833,26.14,29,100,4.39,KZ,1717279594
527,cold springs,39.6802,-119.9766,28.8,22,0,6.69,US,1717279595
528,niafunke,15.9322,-3.9906,37.9,18,21,1.39,ML,1717279595
529,asheville,35.6009,-82.554,21.99,53,0,4.12,US,1717279568
530,nyurba,63.2842,118.3319,16.18,80,100,0.32,RU,1717279595
531,fomboni,-12.28,43.7425,26.89,73,11,2.13,KM,1717279595
532,mbuguni,-3.5667,36.95,18.26,81,13,1.97,TZ,1717279595
533,tezu,27.9167,96.1667,23.05,81,31,1.91,IN,1717279595
534,taksimo,56.3444,114.8794,14.46,79,85,0.09,RU,1717279595
535,faya-largeau,17.9257,19.1043,36.22,12,0,5.69,TD,1717279595
536,surgut,61.25,73.4167,3.84,80,0,4.0,RU,1717279596
537,ithaca,42.4406,-76.4966,26.18,44,0,0.45,US,1717279596
538,sarandi del yi,-33.35,-55.6333,12.86,95,41,3.37,UY,1717279596
539,knysna,-34.0363,23.0471,14.89,94,100,7.54,ZA,1717279596
540,sirte,31.2089,16.5887,28.19,46,100,5.02,LY,1717279596
541,jackson,42.4165,-122.8345,27.23,30,0,4.63,US,1717278962
542,castillos,-34.1667,-53.8333,13.31,96,43,2.88,UY,1717279596
543,nahan,30.55,77.3,27.41,23,3,2.25,IN,1717279596
544,altay,47.8667,88.1167,9.81,56,67,1.69,CN,1717279597
545,kalmunai,7.4167,81.8167,26.71,91,99,5.03,LK,1717279597
546,balaklava,44.5,33.6,20.21,39,0,3.68,UA,1717279597
547,vila do maio,15.1333,-23.2167,23.44,81,15,5.92,CV,1717279597
548,swakopmund,-22.6833,14.5333,10.55,77,0,4.47,NA,1717279597
549,tarawa,1.419,172.984,30.05,74,0,5.14,KI,1717279598
550,yanykurgan,43.915,67.2481,23.13,29,0,3.83,KZ,1717279598
551,luderitz,-26.6481,15.1594,9.54,83,0,1.38,NA,1717279598
552,popondetta,-8.7537,148.2534,25.26,88,71,0.45,PG,1717279598
553,arno,60.1167,18.6333,11.56,79,11,2.87,SE,1717279598
554,dabou,5.3256,-4.3769,25.88,87,100,4.92,CI,1717279598
555,as saffaniyah,27.9708,48.73,34.2,33,0,9.24,SA,1717279598
556,thames,-37.1333,175.5333,15.86,89,100,1.76,NZ,1717279598
557,san antonio de pale,-1.4014,5.6325,26.89,71,91,6.7,GQ,1717279599
558,sandikli,38.4647,30.2695,17.15,52,0,0.45,TR,1717279599
559,sipovo,44.2814,17.0839,12.79,97,43,2.29,BA,1717279599
560,newman,37.3138,-121.0208,32.38,15,10,4.53,US,1717279599
561,rajapur,25.3833,81.15,36.12,22,8,3.54,IN,1717279599
562,victoriaville,46.0501,-71.9658,21.53,65,94,1.76,CA,1717279485
563,boa vista,2.8197,-60.6733,26.99,83,40,2.06,BR,1717279599
564,ola,59.5833,151.2833,12.86,56,100,4.33,RU,1717279600
565,colares,38.7992,-9.4469,23.55,89,0,5.36,PT,1717279600
566,whitefish,48.4111,-114.3376,21.47,38,0,7.2,US,1717279310
567,barcelos,41.5388,-8.6151,25.08,49,5,3.81,PT,1717279312
568,santo antonio,-6.3106,-35.4789,23.57,95,12,2.98,BR,1717279599
569,nerchinsk,51.9833,116.5833,16.49,51,40,0.15,RU,1717279600
570,mata-utu,-13.2816,-176.1745,28.16,76,98,7.55,WF,1717279600
571,wyomissing,40.3295,-75.9652,27.29,31,90,2.68,US,1717279600
572,narrabri,-30.3167,149.7833,11.96,90,100,0.89,AU,1717279601
573,salekhard,66.53,66.6019,-2.56,87,76,4.47,RU,1717279601
574,richards bay,-28.783,32.0377,19.45,91,29,2.37,ZA,1717279599
575,goundam,16.4145,-3.6708,35.74,18,1,1.46,ML,1717279601
576,acton vale,45.6501,-72.5658,27.08,62,70,1.43,CA,1717279321
577,zwedru,6.0667,-8.1281,22.7,99,100,0.77,LR,1717279601
578,kill devil hills,36.0307,-75.676,24.0,48,0,3.6,US,1717279578
579,qianzhou,28.3167,109.7167,19.16,80,100,0.72,CN,1717279601
580,humberto de campos,-2.5983,-43.4611,24.65,96,18,1.08,BR,1717279564
581,mao,39.8885,4.2658,19.31,63,0,3.6,ES,1717279602
582,kimbe,-5.5502,150.1429,26.45,87,62,1.87,PG,1717279602
583,saint-joseph,-21.3667,55.6167,20.21,70,37,3.38,RE,1717279394
584,callao,-12.0667,-77.15,19.84,82,100,2.06,PE,1717279566
